{"type":"FeatureCollection","features":[{"type":"Feature","geometry":{"type":"Point","coordinates":[-0.110199340766173,51.5227728736774]},"properties":{"LicenceArea":"London Power Networks (LPN)","SubstationName":"Back Hill 33kV","Voltage":33}},{"type":"Feature","geometry":{"type":"Point","coordinates":[-0.0965998096299446,51.4672396010659]},"properties":{"LicenceArea":"London Power Networks (LPN)","SubstationName":"Bengeworth Rd Grid 33kV","Voltage":33}},{"type":"Feature","geometry":{"type":"Point","coordinates":[-0.0965998096299446,51.4672396010659]},"properties":{"LicenceArea":"London Power Networks (LPN)","SubstationName":"Bengeworth Rd Grid 33kV","Voltage":33}},{"type":"Feature","geometry":{"type":"Point","coordinates":[0.0680243879105988,51.3920586154822]},"properties":{"LicenceArea":"London Power Networks (LPN)","SubstationName":"Bromley Grid 33kV","Voltage":33}},{"type":"Feature","geometry":{"type":"Point","coordinates":[0.0321041471194079,51.6249331055527]},"properties":{"LicenceArea":"London Power Networks (LPN)","SubstationName":"Buckhurst Hill 33kV","Voltage":33}},{"type":"Feature","geometry":{"type":"Point","coordinates":[0.0321041471194079,51.6249331055527]},"properties":{"LicenceArea":"London Power Networks (LPN)","SubstationName":"Buckhurst Hill 33kV","Voltage":33}},{"type":"Feature","geometry":{"type":"Point","coordinates":[-0.0764668901728496,51.4680440899764]},"properties":{"LicenceArea":"London Power Networks (LPN)","SubstationName":"Chadwick Road 33kV","Voltage":33}},{"type":"Feature","geometry":{"type":"Point","coordinates":[-0.0764668901728496,51.4680440899764]},"properties":{"LicenceArea":"London Power Networks (LPN)","SubstationName":"Chadwick Road 33kV","Voltage":33}},{"type":"Feature","geometry":{"type":"Point","coordinates":[0.0798007499612504,51.4599353371887]},"properties":{"LicenceArea":"London Power Networks (LPN)","SubstationName":"Eltham Grid 33kV","Voltage":33}},{"type":"Feature","geometry":{"type":"Point","coordinates":[-0.0818741388720065,51.5210451401544]},"properties":{"LicenceArea":"London Power Networks (LPN)","SubstationName":"Finsbury Market B 33kV","Voltage":33}},{"type":"Feature","geometry":{"type":"Point","coordinates":[-0.0818741388720065,51.5210451401544]},"properties":{"LicenceArea":"London Power Networks (LPN)","SubstationName":"Finsbury Market B 33kV","Voltage":33}},{"type":"Feature","geometry":{"type":"Point","coordinates":[-0.0818741388720065,51.5210451401544]},"properties":{"LicenceArea":"London Power Networks (LPN)","SubstationName":"Finsbury Market B 33kV","Voltage":33}},{"type":"Feature","geometry":{"type":"Point","coordinates":[-0.0818741388720065,51.5210451401544]},"properties":{"LicenceArea":"London Power Networks (LPN)","SubstationName":"Finsbury Market B 33kV","Voltage":33}},{"type":"Feature","geometry":{"type":"Point","coordinates":[-0.0833021594520701,51.5213652388713]},"properties":{"LicenceArea":"London Power Networks (LPN)","SubstationName":"Finsbury Mkt F 33kV","Voltage":33}},{"type":"Feature","geometry":{"type":"Point","coordinates":[-0.0833021594520701,51.5213652388713]},"properties":{"LicenceArea":"London Power Networks (LPN)","SubstationName":"Finsbury Mkt F 33kV","Voltage":33}},{"type":"Feature","geometry":{"type":"Point","coordinates":[-0.0423838561875229,51.558880955487]},"properties":{"LicenceArea":"London Power Networks (LPN)","SubstationName":"Hackney Grid 66kV","Voltage":66}},{"type":"Feature","geometry":{"type":"Point","coordinates":[-0.194444048152601,51.4610716332995]},"properties":{"LicenceArea":"London Power Networks (LPN)","SubstationName":"Wandsworth 66kV","Voltage":66}},{"type":"Feature","geometry":{"type":"Point","coordinates":[0.0023569135849697,51.5188820189688]},"properties":{"LicenceArea":"London Power Networks (LPN)","SubstationName":"West Ham 66kV","Voltage":66}},{"type":"Feature","geometry":{"type":"Point","coordinates":[0.0023569135849697,51.5188820189688]},"properties":{"LicenceArea":"London Power Networks (LPN)","SubstationName":"West Ham 66kV","Voltage":66}},{"type":"Feature","geometry":{"type":"Point","coordinates":[-0.110199340766173,51.5227728736774]},"properties":{"LicenceArea":"London Power Networks (LPN)","SubstationName":"Back Hill 33kV","Voltage":33}},{"type":"Feature","geometry":{"type":"Point","coordinates":[-0.0965998096299446,51.4672396010659]},"properties":{"LicenceArea":"London Power Networks (LPN)","SubstationName":"Bengeworth Rd Grid 33kV","Voltage":33}},{"type":"Feature","geometry":{"type":"Point","coordinates":[0.0680243879105988,51.3920586154822]},"properties":{"LicenceArea":"London Power Networks (LPN)","SubstationName":"Bromley Grid 33kV","Voltage":33}},{"type":"Feature","geometry":{"type":"Point","coordinates":[0.0680243879105988,51.3920586154822]},"properties":{"LicenceArea":"London Power Networks (LPN)","SubstationName":"Bromley Grid 33kV","Voltage":33}},{"type":"Feature","geometry":{"type":"Point","coordinates":[0.0321041471194079,51.6249331055527]},"properties":{"LicenceArea":"London Power Networks (LPN)","SubstationName":"Buckhurst Hill 33kV","Voltage":33}},{"type":"Feature","geometry":{"type":"Point","coordinates":[0.0321041471194079,51.6249331055527]},"properties":{"LicenceArea":"London Power Networks (LPN)","SubstationName":"Buckhurst Hill 33kV","Voltage":33}},{"type":"Feature","geometry":{"type":"Point","coordinates":[-0.0764668901728496,51.4680440899764]},"properties":{"LicenceArea":"London Power Networks (LPN)","SubstationName":"Chadwick Road 33kV","Voltage":33}},{"type":"Feature","geometry":{"type":"Point","coordinates":[0.212707258425332,51.4502085302068]},"properties":{"LicenceArea":"London Power Networks (LPN)","SubstationName":"Dartford Grid A 33kV","Voltage":33}},{"type":"Feature","geometry":{"type":"Point","coordinates":[0.0798007499612504,51.4599353371887]},"properties":{"LicenceArea":"London Power Networks (LPN)","SubstationName":"Eltham Grid 33kV","Voltage":33}},{"type":"Feature","geometry":{"type":"Point","coordinates":[-0.0833021594520701,51.5213652388713]},"properties":{"LicenceArea":"London Power Networks (LPN)","SubstationName":"Finsbury Mkt F 33kV","Voltage":33}},{"type":"Feature","geometry":{"type":"Point","coordinates":[-0.0423838561875229,51.558880955487]},"properties":{"LicenceArea":"London Power Networks (LPN)","SubstationName":"Hackney Grid 66kV","Voltage":66}},{"type":"Feature","geometry":{"type":"Point","coordinates":[-0.116116984213675,51.5526242513089]},"properties":{"LicenceArea":"London Power Networks (LPN)","SubstationName":"Holloway Grid 66kV","Voltage":66}},{"type":"Feature","geometry":{"type":"Point","coordinates":[-0.116116984213675,51.5526242513089]},"properties":{"LicenceArea":"London Power Networks (LPN)","SubstationName":"Holloway Grid 66kV","Voltage":66}},{"type":"Feature","geometry":{"type":"Point","coordinates":[-0.0534092272594345,51.4333474012746]},"properties":{"LicenceArea":"London Power Networks (LPN)","SubstationName":"Sydenham Park 33kV","Voltage":33}},{"type":"Feature","geometry":{"type":"Point","coordinates":[-0.0534092272594345,51.4333474012746]},"properties":{"LicenceArea":"London Power Networks (LPN)","SubstationName":"Sydenham Park 33kV","Voltage":33}},{"type":"Feature","geometry":{"type":"Point","coordinates":[-0.194444048152601,51.4610716332995]},"properties":{"LicenceArea":"London Power Networks (LPN)","SubstationName":"Wandsworth 66kV","Voltage":66}},{"type":"Feature","geometry":{"type":"Point","coordinates":[-0.194444048152601,51.4610716332995]},"properties":{"LicenceArea":"London Power Networks (LPN)","SubstationName":"Wandsworth 66kV","Voltage":66}},{"type":"Feature","geometry":{"type":"Point","coordinates":[-0.194444048152601,51.4610716332995]},"properties":{"LicenceArea":"London Power Networks (LPN)","SubstationName":"Wandsworth 66kV","Voltage":66}},{"type":"Feature","geometry":{"type":"Point","coordinates":[0.0023569135849697,51.5188820189688]},"properties":{"LicenceArea":"London Power Networks (LPN)","SubstationName":"West Ham 66kV","Voltage":66}},{"type":"Feature","geometry":{"type":"Point","coordinates":[-0.187025843699153,51.4303015596124]},"properties":{"LicenceArea":"London Power Networks (LPN)","SubstationName":"Wimbledon Grid C 33kV","Voltage":33}},{"type":"Feature","geometry":{"type":"Point","coordinates":[-0.187025843699153,51.4303015596124]},"properties":{"LicenceArea":"London Power Networks (LPN)","SubstationName":"Wimbledon Grid C 33kV","Voltage":33}},{"type":"Feature","geometry":{"type":"Point","coordinates":[-0.187025843699153,51.4303015596124]},"properties":{"LicenceArea":"London Power Networks (LPN)","SubstationName":"Wimbledon Grid C 33kV","Voltage":33}},{"type":"Feature","geometry":{"type":"Point","coordinates":[-0.187025843699153,51.4303015596124]},"properties":{"LicenceArea":"London Power Networks (LPN)","SubstationName":"Wimbledon Grid C 33kV","Voltage":33}},{"type":"Feature","geometry":{"type":"Point","coordinates":[-0.110199340766173,51.5227728736774]},"properties":{"LicenceArea":"London Power Networks (LPN)","SubstationName":"Back Hill 33kV","Voltage":33}},{"type":"Feature","geometry":{"type":"Point","coordinates":[-0.110199340766173,51.5227728736774]},"properties":{"LicenceArea":"London Power Networks (LPN)","SubstationName":"Back Hill 33kV","Voltage":33}},{"type":"Feature","geometry":{"type":"Point","coordinates":[-0.0965998096299446,51.4672396010659]},"properties":{"LicenceArea":"London Power Networks (LPN)","SubstationName":"Bengeworth Rd Grid 33kV","Voltage":33}},{"type":"Feature","geometry":{"type":"Point","coordinates":[0.0680243879105988,51.3920586154822]},"properties":{"LicenceArea":"London Power Networks (LPN)","SubstationName":"Bromley Grid 33kV","Voltage":33}},{"type":"Feature","geometry":{"type":"Point","coordinates":[-0.0764668901728496,51.4680440899764]},"properties":{"LicenceArea":"London Power Networks (LPN)","SubstationName":"Chadwick Road 33kV","Voltage":33}},{"type":"Feature","geometry":{"type":"Point","coordinates":[0.212707258425332,51.4502085302068]},"properties":{"LicenceArea":"London Power Networks (LPN)","SubstationName":"Dartford Grid A 33kV","Voltage":33}},{"type":"Feature","geometry":{"type":"Point","coordinates":[0.212707258425332,51.4502085302068]},"properties":{"LicenceArea":"London Power Networks (LPN)","SubstationName":"Dartford Grid A 33kV","Voltage":33}},{"type":"Feature","geometry":{"type":"Point","coordinates":[0.212707258425332,51.4502085302068]},"properties":{"LicenceArea":"London Power Networks (LPN)","SubstationName":"Dartford Grid A 33kV","Voltage":33}},{"type":"Feature","geometry":{"type":"Point","coordinates":[0.0798007499612504,51.4599353371887]},"properties":{"LicenceArea":"London Power Networks (LPN)","SubstationName":"Eltham Grid 33kV","Voltage":33}},{"type":"Feature","geometry":{"type":"Point","coordinates":[0.0798007499612504,51.4599353371887]},"properties":{"LicenceArea":"London Power Networks (LPN)","SubstationName":"Eltham Grid 33kV","Voltage":33}},{"type":"Feature","geometry":{"type":"Point","coordinates":[-0.0833021594520701,51.5213652388713]},"properties":{"LicenceArea":"London Power Networks (LPN)","SubstationName":"Finsbury Mkt F 33kV","Voltage":33}},{"type":"Feature","geometry":{"type":"Point","coordinates":[-0.0423838561875229,51.558880955487]},"properties":{"LicenceArea":"London Power Networks (LPN)","SubstationName":"Hackney Grid 66kV","Voltage":66}},{"type":"Feature","geometry":{"type":"Point","coordinates":[-0.0423838561875229,51.558880955487]},"properties":{"LicenceArea":"London Power Networks (LPN)","SubstationName":"Hackney Grid 66kV","Voltage":66}},{"type":"Feature","geometry":{"type":"Point","coordinates":[-0.116116984213675,51.5526242513089]},"properties":{"LicenceArea":"London Power Networks (LPN)","SubstationName":"Holloway Grid 66kV","Voltage":66}},{"type":"Feature","geometry":{"type":"Point","coordinates":[-0.116116984213675,51.5526242513089]},"properties":{"LicenceArea":"London Power Networks (LPN)","SubstationName":"Holloway Grid 66kV","Voltage":66}},{"type":"Feature","geometry":{"type":"Point","coordinates":[-0.0534092272594345,51.4333474012746]},"properties":{"LicenceArea":"London Power Networks (LPN)","SubstationName":"Sydenham Park 33kV","Voltage":33}},{"type":"Feature","geometry":{"type":"Point","coordinates":[-0.0534092272594345,51.4333474012746]},"properties":{"LicenceArea":"London Power Networks (LPN)","SubstationName":"Sydenham Park 33kV","Voltage":33}},{"type":"Feature","geometry":{"type":"Point","coordinates":[0.0023569135849697,51.5188820189688]},"properties":{"LicenceArea":"London Power Networks (LPN)","SubstationName":"West Ham 66kV","Voltage":66}}]}