{"type":"FeatureCollection","features":[{"type":"Feature","geometry":{"type":"Point","coordinates":[0.187170508476193,52.1885863571443]},"properties":{"LicenceArea":"Eastern Power Networks (EPN)","SubstationName":"Fulbourn Grid 33kV","Voltage":33}},{"type":"Feature","geometry":{"type":"Point","coordinates":[0.187170508476193,52.1885863571443]},"properties":{"LicenceArea":"Eastern Power Networks (EPN)","SubstationName":"Fulbourn Grid 33kV","Voltage":33}},{"type":"Feature","geometry":{"type":"Point","coordinates":[1.70510092036558,52.5668164479376]},"properties":{"LicenceArea":"Eastern Power Networks (EPN)","SubstationName":"Gorleston Grid 33kV","Voltage":33}},{"type":"Feature","geometry":{"type":"Point","coordinates":[1.73078453995204,52.5916441207607]},"properties":{"LicenceArea":"Eastern Power Networks (EPN)","SubstationName":"GT Yarmouth Grid 33kV","Voltage":33}},{"type":"Feature","geometry":{"type":"Point","coordinates":[1.50991343666374,52.3564655534]},"properties":{"LicenceArea":"Eastern Power Networks (EPN)","SubstationName":"Halesworth Grid 33kV","Voltage":33}},{"type":"Feature","geometry":{"type":"Point","coordinates":[1.50991343666374,52.3564655534]},"properties":{"LicenceArea":"Eastern Power Networks (EPN)","SubstationName":"Halesworth Grid 33kV","Voltage":33}},{"type":"Feature","geometry":{"type":"Point","coordinates":[0.0664813521584316,51.7638697986445]},"properties":{"LicenceArea":"Eastern Power Networks (EPN)","SubstationName":"Harlow West Grid 33kV","Voltage":33}},{"type":"Feature","geometry":{"type":"Point","coordinates":[0.0664813521584316,51.7638697986445]},"properties":{"LicenceArea":"Eastern Power Networks (EPN)","SubstationName":"Harlow West Grid 33kV","Voltage":33}},{"type":"Feature","geometry":{"type":"Point","coordinates":[-0.366642550258783,51.5802894088374]},"properties":{"LicenceArea":"Eastern Power Networks (EPN)","SubstationName":"Harrow North Grid 33kV","Voltage":33}},{"type":"Feature","geometry":{"type":"Point","coordinates":[-0.366642550258783,51.5802894088374]},"properties":{"LicenceArea":"Eastern Power Networks (EPN)","SubstationName":"Harrow North Grid 33kV","Voltage":33}},{"type":"Feature","geometry":{"type":"Point","coordinates":[-0.382678140160238,51.6164440148085]},"properties":{"LicenceArea":"Eastern Power Networks (EPN)","SubstationName":"Hatch End Grid 33kV","Voltage":33}},{"type":"Feature","geometry":{"type":"Point","coordinates":[0.826556488347647,52.8294239895079]},"properties":{"LicenceArea":"Eastern Power Networks (EPN)","SubstationName":"Hempton Grid 33kV","Voltage":33}},{"type":"Feature","geometry":{"type":"Point","coordinates":[0.826556488347647,52.8294239895079]},"properties":{"LicenceArea":"Eastern Power Networks (EPN)","SubstationName":"Hempton Grid 33kV","Voltage":33}},{"type":"Feature","geometry":{"type":"Point","coordinates":[0.102236618763704,52.2461229481053]},"properties":{"LicenceArea":"Eastern Power Networks (EPN)","SubstationName":"Histon Grid 33kV","Voltage":33}},{"type":"Feature","geometry":{"type":"Point","coordinates":[0.225088306836665,51.5594096902223]},"properties":{"LicenceArea":"Eastern Power Networks (EPN)","SubstationName":"Hornchurch Grid 33kV","Voltage":33}},{"type":"Feature","geometry":{"type":"Point","coordinates":[0.225088306836665,51.5594096902223]},"properties":{"LicenceArea":"Eastern Power Networks (EPN)","SubstationName":"Hornchurch Grid 33kV","Voltage":33}},{"type":"Feature","geometry":{"type":"Point","coordinates":[-0.114771695980871,51.5851553463128]},"properties":{"LicenceArea":"Eastern Power Networks (EPN)","SubstationName":"Hornsey Grid 33kV","Voltage":33}},{"type":"Feature","geometry":{"type":"Point","coordinates":[-0.513540473304274,51.8962802853099]},"properties":{"LicenceArea":"Eastern Power Networks (EPN)","SubstationName":"Houghton Regis Grid 33kV","Voltage":33}},{"type":"Feature","geometry":{"type":"Point","coordinates":[-0.513540473304274,51.8962802853099]},"properties":{"LicenceArea":"Eastern Power Networks (EPN)","SubstationName":"Houghton Regis Grid 33kV","Voltage":33}},{"type":"Feature","geometry":{"type":"Point","coordinates":[-0.183060686204365,52.3407372864036]},"properties":{"LicenceArea":"Eastern Power Networks (EPN)","SubstationName":"Huntingdon Grid 33kV","Voltage":33}},{"type":"Feature","geometry":{"type":"Point","coordinates":[-0.183060686204365,52.3407372864036]},"properties":{"LicenceArea":"Eastern Power Networks (EPN)","SubstationName":"Huntingdon Grid 33kV","Voltage":33}},{"type":"Feature","geometry":{"type":"Point","coordinates":[1.50949530315185,52.438021143301]},"properties":{"LicenceArea":"Eastern Power Networks (EPN)","SubstationName":"Ilketshall Grid 33kV","Voltage":33}},{"type":"Feature","geometry":{"type":"Point","coordinates":[-0.88227449772753,51.7517773136147]},"properties":{"LicenceArea":"Eastern Power Networks (EPN)","SubstationName":"Ilmer Grid 33kV","Voltage":33}},{"type":"Feature","geometry":{"type":"Point","coordinates":[1.13613641316806,52.0559562042733]},"properties":{"LicenceArea":"Eastern Power Networks (EPN)","SubstationName":"Ipswich Grid 33kV","Voltage":33}},{"type":"Feature","geometry":{"type":"Point","coordinates":[0.399591493869985,52.7576600302301]},"properties":{"LicenceArea":"Eastern Power Networks (EPN)","SubstationName":"Kings Lynn Grid  33kV","Voltage":33}},{"type":"Feature","geometry":{"type":"Point","coordinates":[0.402921260194627,52.7314538421169]},"properties":{"LicenceArea":"Eastern Power Networks (EPN)","SubstationName":"Kings Lynn South Grid 33kV","Voltage":33}},{"type":"Feature","geometry":{"type":"Point","coordinates":[0.402921260194627,52.7314538421169]},"properties":{"LicenceArea":"Eastern Power Networks (EPN)","SubstationName":"Kings Lynn South Grid 33kV","Voltage":33}},{"type":"Feature","geometry":{"type":"Point","coordinates":[-0.258125250627133,51.5450707591394]},"properties":{"LicenceArea":"Eastern Power Networks (EPN)","SubstationName":"Leicester Rd Grid 33kV","Voltage":33}},{"type":"Feature","geometry":{"type":"Point","coordinates":[-0.258125250627133,51.5450707591394]},"properties":{"LicenceArea":"Eastern Power Networks (EPN)","SubstationName":"Leicester Rd Grid 33kV","Voltage":33}},{"type":"Feature","geometry":{"type":"Point","coordinates":[-0.20069463512711,51.9810578589643]},"properties":{"LicenceArea":"Eastern Power Networks (EPN)","SubstationName":"Letchworth Grid 33kV","Voltage":33}},{"type":"Feature","geometry":{"type":"Point","coordinates":[-0.20069463512711,51.9810578589643]},"properties":{"LicenceArea":"Eastern Power Networks (EPN)","SubstationName":"Letchworth Grid 33kV","Voltage":33}},{"type":"Feature","geometry":{"type":"Point","coordinates":[-0.263634779607096,52.2080234773207]},"properties":{"LicenceArea":"Eastern Power Networks (EPN)","SubstationName":"Little Barford 33kV","Voltage":33}},{"type":"Feature","geometry":{"type":"Point","coordinates":[1.73967407554699,52.478918694707]},"properties":{"LicenceArea":"Eastern Power Networks (EPN)","SubstationName":"Lowestoft Grid 33kV","Voltage":33}},{"type":"Feature","geometry":{"type":"Point","coordinates":[1.73967407554699,52.478918694707]},"properties":{"LicenceArea":"Eastern Power Networks (EPN)","SubstationName":"Lowestoft Grid 33kV","Voltage":33}},{"type":"Feature","geometry":{"type":"Point","coordinates":[-0.425238695984649,51.9077650978683]},"properties":{"LicenceArea":"Eastern Power Networks (EPN)","SubstationName":"Luton North Grid 33kV","Voltage":33}},{"type":"Feature","geometry":{"type":"Point","coordinates":[-0.401147204474172,51.8746745583959]},"properties":{"LicenceArea":"Eastern Power Networks (EPN)","SubstationName":"Luton South Grid 33kV","Voltage":33}},{"type":"Feature","geometry":{"type":"Point","coordinates":[-0.401147204474172,51.8746745583959]},"properties":{"LicenceArea":"Eastern Power Networks (EPN)","SubstationName":"Luton South Grid 33kV","Voltage":33}},{"type":"Feature","geometry":{"type":"Point","coordinates":[0.659107740468937,51.7253682121654]},"properties":{"LicenceArea":"Eastern Power Networks (EPN)","SubstationName":"Maldon Grid 33kV","Voltage":33}},{"type":"Feature","geometry":{"type":"Point","coordinates":[0.0748765202284335,52.5482388436914]},"properties":{"LicenceArea":"Eastern Power Networks (EPN)","SubstationName":"March Grid 33kV","Voltage":33}},{"type":"Feature","geometry":{"type":"Point","coordinates":[0.0748765202284335,52.5482388436914]},"properties":{"LicenceArea":"Eastern Power Networks (EPN)","SubstationName":"March Grid 33kV","Voltage":33}},{"type":"Feature","geometry":{"type":"Point","coordinates":[-0.00399539415023235,52.0749472610913]},"properties":{"LicenceArea":"Eastern Power Networks (EPN)","SubstationName":"Melbourn Grid 33kV","Voltage":33}},{"type":"Feature","geometry":{"type":"Point","coordinates":[0.484526289220705,51.5945902916807]},"properties":{"LicenceArea":"Eastern Power Networks (EPN)","SubstationName":"Nevendon Grid 33kV","Voltage":33}},{"type":"Feature","geometry":{"type":"Point","coordinates":[0.484526289220705,51.5945902916807]},"properties":{"LicenceArea":"Eastern Power Networks (EPN)","SubstationName":"Nevendon Grid 33kV","Voltage":33}},{"type":"Feature","geometry":{"type":"Point","coordinates":[0.484526289220705,51.5945902916807]},"properties":{"LicenceArea":"Eastern Power Networks (EPN)","SubstationName":"Nevendon Grid 33kV","Voltage":33}},{"type":"Feature","geometry":{"type":"Point","coordinates":[-0.483363443132631,51.773302564836]},"properties":{"LicenceArea":"Eastern Power Networks (EPN)","SubstationName":"Piccotts End Grid 33kV","Voltage":33}},{"type":"Feature","geometry":{"type":"Point","coordinates":[-0.483363443132631,51.773302564836]},"properties":{"LicenceArea":"Eastern Power Networks (EPN)","SubstationName":"Piccotts End Grid 33kV","Voltage":33}},{"type":"Feature","geometry":{"type":"Point","coordinates":[-0.483363443132631,51.773302564836]},"properties":{"LicenceArea":"Eastern Power Networks (EPN)","SubstationName":"Piccotts End Grid 33kV","Voltage":33}},{"type":"Feature","geometry":{"type":"Point","coordinates":[0.261893054480452,51.4785511205189]},"properties":{"LicenceArea":"Eastern Power Networks (EPN)","SubstationName":"Purfleet Grid 33kV","Voltage":33}},{"type":"Feature","geometry":{"type":"Point","coordinates":[0.00430328440325191,51.7578247127148]},"properties":{"LicenceArea":"Eastern Power Networks (EPN)","SubstationName":"Rye House Grid 33kV","Voltage":33}},{"type":"Feature","geometry":{"type":"Point","coordinates":[0.00430328440325191,51.7578247127148]},"properties":{"LicenceArea":"Eastern Power Networks (EPN)","SubstationName":"Rye House Grid 33kV","Voltage":33}},{"type":"Feature","geometry":{"type":"Point","coordinates":[0.00430328440325191,51.7578247127148]},"properties":{"LicenceArea":"Eastern Power Networks (EPN)","SubstationName":"Rye House Grid 33kV","Voltage":33}},{"type":"Feature","geometry":{"type":"Point","coordinates":[0.455072970236401,51.5078498404139]},"properties":{"LicenceArea":"Eastern Power Networks (EPN)","SubstationName":"Shell Grid 33kV","Voltage":33}},{"type":"Feature","geometry":{"type":"Point","coordinates":[0.359262397298094,51.640432262506]},"properties":{"LicenceArea":"Eastern Power Networks (EPN)","SubstationName":"Shenfield Grid 33kV","Voltage":33}},{"type":"Feature","geometry":{"type":"Point","coordinates":[0.70427090970899,51.5419297609392]},"properties":{"LicenceArea":"Eastern Power Networks (EPN)","SubstationName":"Southend Grid 33kV","Voltage":33}},{"type":"Feature","geometry":{"type":"Point","coordinates":[-0.312481421021654,51.6097459425312]},"properties":{"LicenceArea":"Eastern Power Networks (EPN)","SubstationName":"Stanmore Grid 33kV","Voltage":33}},{"type":"Feature","geometry":{"type":"Point","coordinates":[-0.223517716803999,51.9050728601295]},"properties":{"LicenceArea":"Eastern Power Networks (EPN)","SubstationName":"Stevenage Grid 33kV","Voltage":33}},{"type":"Feature","geometry":{"type":"Point","coordinates":[-0.223517716803999,51.9050728601295]},"properties":{"LicenceArea":"Eastern Power Networks (EPN)","SubstationName":"Stevenage Grid 33kV","Voltage":33}},{"type":"Feature","geometry":{"type":"Point","coordinates":[0.701819023078985,52.6427111993623]},"properties":{"LicenceArea":"Eastern Power Networks (EPN)","SubstationName":"Swaffham Grid 33kV","Voltage":33}},{"type":"Feature","geometry":{"type":"Point","coordinates":[0.701819023078985,52.6427111993623]},"properties":{"LicenceArea":"Eastern Power Networks (EPN)","SubstationName":"Swaffham Grid 33kV","Voltage":33}},{"type":"Feature","geometry":{"type":"Point","coordinates":[0.360450203279172,51.9655875581503]},"properties":{"LicenceArea":"Eastern Power Networks (EPN)","SubstationName":"Thaxted Grid 33kV","Voltage":33}},{"type":"Feature","geometry":{"type":"Point","coordinates":[0.380567538696008,51.4617131255402]},"properties":{"LicenceArea":"Eastern Power Networks (EPN)","SubstationName":"Tilbury Compact Grid 33kV","Voltage":33}},{"type":"Feature","geometry":{"type":"Point","coordinates":[0.380567538696008,51.4617131255402]},"properties":{"LicenceArea":"Eastern Power Networks (EPN)","SubstationName":"Tilbury Compact Grid 33kV","Voltage":33}},{"type":"Feature","geometry":{"type":"Point","coordinates":[-0.0768794953922602,51.5834614195586]},"properties":{"LicenceArea":"Eastern Power Networks (EPN)","SubstationName":"Tottenham Grid 33kV","Voltage":33}},{"type":"Feature","geometry":{"type":"Point","coordinates":[-0.0768794953922602,51.5834614195586]},"properties":{"LicenceArea":"Eastern Power Networks (EPN)","SubstationName":"Tottenham Grid 33kV","Voltage":33}},{"type":"Feature","geometry":{"type":"Point","coordinates":[0.190011771658331,52.6607159075881]},"properties":{"LicenceArea":"Eastern Power Networks (EPN)","SubstationName":"Walsoken Grid 33kV","Voltage":33}},{"type":"Feature","geometry":{"type":"Point","coordinates":[0.190011771658331,52.6607159075881]},"properties":{"LicenceArea":"Eastern Power Networks (EPN)","SubstationName":"Walsoken Grid 33kV","Voltage":33}},{"type":"Feature","geometry":{"type":"Point","coordinates":[-0.209693644579836,51.7883364899696]},"properties":{"LicenceArea":"Eastern Power Networks (EPN)","SubstationName":"Welwyn Grid 33kV","Voltage":33}},{"type":"Feature","geometry":{"type":"Point","coordinates":[-0.209693644579836,51.7883364899696]},"properties":{"LicenceArea":"Eastern Power Networks (EPN)","SubstationName":"Welwyn Grid 33kV","Voltage":33}},{"type":"Feature","geometry":{"type":"Point","coordinates":[-0.490245258870721,51.9863486231079]},"properties":{"LicenceArea":"Eastern Power Networks (EPN)","SubstationName":"Westoning Grid 33kV","Voltage":33}},{"type":"Feature","geometry":{"type":"Point","coordinates":[-0.490245258870721,51.9863486231079]},"properties":{"LicenceArea":"Eastern Power Networks (EPN)","SubstationName":"Westoning Grid 33kV","Voltage":33}},{"type":"Feature","geometry":{"type":"Point","coordinates":[0.886519235432711,51.8444446070525]},"properties":{"LicenceArea":"Eastern Power Networks (EPN)","SubstationName":"Abberton Grid 33kV","Voltage":33}},{"type":"Feature","geometry":{"type":"Point","coordinates":[0.129295504611532,52.2360705090683]},"properties":{"LicenceArea":"Eastern Power Networks (EPN)","SubstationName":"Arbury Grid 33kV","Voltage":33}},{"type":"Feature","geometry":{"type":"Point","coordinates":[0.129295504611532,52.2360705090683]},"properties":{"LicenceArea":"Eastern Power Networks (EPN)","SubstationName":"Arbury Grid 33kV","Voltage":33}},{"type":"Feature","geometry":{"type":"Point","coordinates":[-0.482627126732345,52.1267409229522]},"properties":{"LicenceArea":"Eastern Power Networks (EPN)","SubstationName":"Austin Canons Grid 33kV","Voltage":33}},{"type":"Feature","geometry":{"type":"Point","coordinates":[-0.211010913182026,51.6611178628291]},"properties":{"LicenceArea":"Eastern Power Networks (EPN)","SubstationName":"Barnet Grid 33kV","Voltage":33}},{"type":"Feature","geometry":{"type":"Point","coordinates":[-0.211010913182026,51.6611178628291]},"properties":{"LicenceArea":"Eastern Power Networks (EPN)","SubstationName":"Barnet Grid 33kV","Voltage":33}},{"type":"Feature","geometry":{"type":"Point","coordinates":[0.391245704650906,51.5659158377634]},"properties":{"LicenceArea":"Eastern Power Networks (EPN)","SubstationName":"Basildon Grid 33kV","Voltage":33}},{"type":"Feature","geometry":{"type":"Point","coordinates":[0.605358966326239,52.0685789944063]},"properties":{"LicenceArea":"Eastern Power Networks (EPN)","SubstationName":"Belchamp Grid 33kV","Voltage":33}},{"type":"Feature","geometry":{"type":"Point","coordinates":[0.141840215127366,51.8782623044817]},"properties":{"LicenceArea":"Eastern Power Networks (EPN)","SubstationName":"Bishops Stortford Grid 33kV","Voltage":33}},{"type":"Feature","geometry":{"type":"Point","coordinates":[0.575489132018182,51.8667690820958]},"properties":{"LicenceArea":"Eastern Power Networks (EPN)","SubstationName":"Braintree Local 33kV","Voltage":33}},{"type":"Feature","geometry":{"type":"Point","coordinates":[0.575489132018182,51.8667690820958]},"properties":{"LicenceArea":"Eastern Power Networks (EPN)","SubstationName":"Braintree Local 33kV","Voltage":33}},{"type":"Feature","geometry":{"type":"Point","coordinates":[-0.0243613028809124,51.6630808320757]},"properties":{"LicenceArea":"Eastern Power Networks (EPN)","SubstationName":"Brimsdown North Grid 33kV","Voltage":33}},{"type":"Feature","geometry":{"type":"Point","coordinates":[-0.0243613028809124,51.6630808320757]},"properties":{"LicenceArea":"Eastern Power Networks (EPN)","SubstationName":"Brimsdown North Grid 33kV","Voltage":33}},{"type":"Feature","geometry":{"type":"Point","coordinates":[-0.0243613028809124,51.6630808320757]},"properties":{"LicenceArea":"Eastern Power Networks (EPN)","SubstationName":"Brimsdown North Grid 33kV","Voltage":33}},{"type":"Feature","geometry":{"type":"Point","coordinates":[0.317253092352746,52.2774898958568]},"properties":{"LicenceArea":"Eastern Power Networks (EPN)","SubstationName":"Burwell Local Grid 33kV","Voltage":33}},{"type":"Feature","geometry":{"type":"Point","coordinates":[0.722979910939776,52.2399236387066]},"properties":{"LicenceArea":"Eastern Power Networks (EPN)","SubstationName":"Bury Grid 33kV","Voltage":33}},{"type":"Feature","geometry":{"type":"Point","coordinates":[0.722979910939776,52.2399236387066]},"properties":{"LicenceArea":"Eastern Power Networks (EPN)","SubstationName":"Bury Grid 33kV","Voltage":33}},{"type":"Feature","geometry":{"type":"Point","coordinates":[0.722979910939776,52.2399236387066]},"properties":{"LicenceArea":"Eastern Power Networks (EPN)","SubstationName":"Bury Grid 33kV","Voltage":33}},{"type":"Feature","geometry":{"type":"Point","coordinates":[-0.382370800818844,51.670976638723]},"properties":{"LicenceArea":"Eastern Power Networks (EPN)","SubstationName":"Bushey Mill Grid 33kV","Voltage":33}},{"type":"Feature","geometry":{"type":"Point","coordinates":[-0.313863401555305,51.7449977816522]},"properties":{"LicenceArea":"Eastern Power Networks (EPN)","SubstationName":"Cell Barnes Grid 33kV","Voltage":33}},{"type":"Feature","geometry":{"type":"Point","coordinates":[-0.313863401555305,51.7449977816522]},"properties":{"LicenceArea":"Eastern Power Networks (EPN)","SubstationName":"Cell Barnes Grid 33kV","Voltage":33}},{"type":"Feature","geometry":{"type":"Point","coordinates":[-0.313863401555305,51.7449977816522]},"properties":{"LicenceArea":"Eastern Power Networks (EPN)","SubstationName":"Cell Barnes Grid 33kV","Voltage":33}},{"type":"Feature","geometry":{"type":"Point","coordinates":[0.518499417006754,51.716047848483]},"properties":{"LicenceArea":"Eastern Power Networks (EPN)","SubstationName":"Chelmsford East Grid 33kV","Voltage":33}},{"type":"Feature","geometry":{"type":"Point","coordinates":[0.518499417006754,51.716047848483]},"properties":{"LicenceArea":"Eastern Power Networks (EPN)","SubstationName":"Chelmsford East Grid 33kV","Voltage":33}},{"type":"Feature","geometry":{"type":"Point","coordinates":[1.16362334640208,52.0355241339362]},"properties":{"LicenceArea":"Eastern Power Networks (EPN)","SubstationName":"Cliff Quay Grid 33kV","Voltage":33}},{"type":"Feature","geometry":{"type":"Point","coordinates":[1.16362334640208,52.0355241339362]},"properties":{"LicenceArea":"Eastern Power Networks (EPN)","SubstationName":"Cliff Quay Grid 33kV","Voltage":33}},{"type":"Feature","geometry":{"type":"Point","coordinates":[0.930107723117814,51.8779379244362]},"properties":{"LicenceArea":"Eastern Power Networks (EPN)","SubstationName":"Colchester Grid 33kV","Voltage":33}},{"type":"Feature","geometry":{"type":"Point","coordinates":[0.930107723117814,51.8779379244362]},"properties":{"LicenceArea":"Eastern Power Networks (EPN)","SubstationName":"Colchester Grid 33kV","Voltage":33}},{"type":"Feature","geometry":{"type":"Point","coordinates":[0.504436782449211,51.5179036241218]},"properties":{"LicenceArea":"Eastern Power Networks (EPN)","SubstationName":"Coryton Grid 33kV","Voltage":33}},{"type":"Feature","geometry":{"type":"Point","coordinates":[0.159163255035062,51.5690138597556]},"properties":{"LicenceArea":"Eastern Power Networks (EPN)","SubstationName":"Crowlands Grid 33kV","Voltage":33}},{"type":"Feature","geometry":{"type":"Point","coordinates":[0.159163255035062,51.5690138597556]},"properties":{"LicenceArea":"Eastern Power Networks (EPN)","SubstationName":"Crowlands Grid 33kV","Voltage":33}},{"type":"Feature","geometry":{"type":"Point","coordinates":[1.10555613465987,52.3726957140022]},"properties":{"LicenceArea":"Eastern Power Networks (EPN)","SubstationName":"Diss Grid 33kV","Voltage":33}},{"type":"Feature","geometry":{"type":"Point","coordinates":[1.2283936849219,52.6298924830174]},"properties":{"LicenceArea":"Eastern Power Networks (EPN)","SubstationName":"Earlham Grid 33kV","Voltage":33}},{"type":"Feature","geometry":{"type":"Point","coordinates":[0.1189767440755,51.7076219518458]},"properties":{"LicenceArea":"Eastern Power Networks (EPN)","SubstationName":"Epping Grid 33kV","Voltage":33}},{"type":"Feature","geometry":{"type":"Point","coordinates":[-0.184179998417775,51.6005745884072]},"properties":{"LicenceArea":"Eastern Power Networks (EPN)","SubstationName":"Finchley Grid 33kV","Voltage":33}},{"type":"Feature","geometry":{"type":"Point","coordinates":[0.733630386220976,51.5706943663914]},"properties":{"LicenceArea":"Eastern Power Networks (EPN)","SubstationName":"Fleethall Grid 33kV","Voltage":33}},{"type":"Feature","geometry":{"type":"Point","coordinates":[0.187170508476193,52.1885863571443]},"properties":{"LicenceArea":"Eastern Power Networks (EPN)","SubstationName":"Fulbourn Grid 33kV","Voltage":33}},{"type":"Feature","geometry":{"type":"Point","coordinates":[0.187170508476193,52.1885863571443]},"properties":{"LicenceArea":"Eastern Power Networks (EPN)","SubstationName":"Fulbourn Grid 33kV","Voltage":33}},{"type":"Feature","geometry":{"type":"Point","coordinates":[1.70510092036558,52.5668164479376]},"properties":{"LicenceArea":"Eastern Power Networks (EPN)","SubstationName":"Gorleston Grid 33kV","Voltage":33}},{"type":"Feature","geometry":{"type":"Point","coordinates":[1.73078453995204,52.5916441207607]},"properties":{"LicenceArea":"Eastern Power Networks (EPN)","SubstationName":"GT Yarmouth Grid 33kV","Voltage":33}},{"type":"Feature","geometry":{"type":"Point","coordinates":[1.73078453995204,52.5916441207607]},"properties":{"LicenceArea":"Eastern Power Networks (EPN)","SubstationName":"GT Yarmouth Grid 33kV","Voltage":33}},{"type":"Feature","geometry":{"type":"Point","coordinates":[1.73078453995204,52.5916441207607]},"properties":{"LicenceArea":"Eastern Power Networks (EPN)","SubstationName":"GT Yarmouth Grid 33kV","Voltage":33}},{"type":"Feature","geometry":{"type":"Point","coordinates":[1.50991343666374,52.3564655534]},"properties":{"LicenceArea":"Eastern Power Networks (EPN)","SubstationName":"Halesworth Grid 33kV","Voltage":33}},{"type":"Feature","geometry":{"type":"Point","coordinates":[0.0664813521584316,51.7638697986445]},"properties":{"LicenceArea":"Eastern Power Networks (EPN)","SubstationName":"Harlow West Grid 33kV","Voltage":33}},{"type":"Feature","geometry":{"type":"Point","coordinates":[0.0664813521584316,51.7638697986445]},"properties":{"LicenceArea":"Eastern Power Networks (EPN)","SubstationName":"Harlow West Grid 33kV","Voltage":33}},{"type":"Feature","geometry":{"type":"Point","coordinates":[-0.366642550258783,51.5802894088374]},"properties":{"LicenceArea":"Eastern Power Networks (EPN)","SubstationName":"Harrow North Grid 33kV","Voltage":33}},{"type":"Feature","geometry":{"type":"Point","coordinates":[-0.382678140160238,51.6164440148085]},"properties":{"LicenceArea":"Eastern Power Networks (EPN)","SubstationName":"Hatch End Grid 33kV","Voltage":33}},{"type":"Feature","geometry":{"type":"Point","coordinates":[-0.23881421148122,51.7368023047392]},"properties":{"LicenceArea":"Eastern Power Networks (EPN)","SubstationName":"Hatfield Grid 33kV","Voltage":33}},{"type":"Feature","geometry":{"type":"Point","coordinates":[-0.23881421148122,51.7368023047392]},"properties":{"LicenceArea":"Eastern Power Networks (EPN)","SubstationName":"Hatfield Grid 33kV","Voltage":33}},{"type":"Feature","geometry":{"type":"Point","coordinates":[0.826556488347647,52.8294239895079]},"properties":{"LicenceArea":"Eastern Power Networks (EPN)","SubstationName":"Hempton Grid 33kV","Voltage":33}},{"type":"Feature","geometry":{"type":"Point","coordinates":[-0.257634242351455,51.5945300965162]},"properties":{"LicenceArea":"Eastern Power Networks (EPN)","SubstationName":"Hendon Grid 33kV","Voltage":33}},{"type":"Feature","geometry":{"type":"Point","coordinates":[-0.257634242351455,51.5945300965162]},"properties":{"LicenceArea":"Eastern Power Networks (EPN)","SubstationName":"Hendon Grid 33kV","Voltage":33}},{"type":"Feature","geometry":{"type":"Point","coordinates":[0.102236618763704,52.2461229481053]},"properties":{"LicenceArea":"Eastern Power Networks (EPN)","SubstationName":"Histon Grid 33kV","Voltage":33}},{"type":"Feature","geometry":{"type":"Point","coordinates":[-0.4077801463388,51.6462181285799]},"properties":{"LicenceArea":"Eastern Power Networks (EPN)","SubstationName":"Holywell Grid 33kV","Voltage":33}},{"type":"Feature","geometry":{"type":"Point","coordinates":[-0.4077801463388,51.6462181285799]},"properties":{"LicenceArea":"Eastern Power Networks (EPN)","SubstationName":"Holywell Grid 33kV","Voltage":33}},{"type":"Feature","geometry":{"type":"Point","coordinates":[0.225088306836665,51.5594096902223]},"properties":{"LicenceArea":"Eastern Power Networks (EPN)","SubstationName":"Hornchurch Grid 33kV","Voltage":33}},{"type":"Feature","geometry":{"type":"Point","coordinates":[0.225088306836665,51.5594096902223]},"properties":{"LicenceArea":"Eastern Power Networks (EPN)","SubstationName":"Hornchurch Grid 33kV","Voltage":33}},{"type":"Feature","geometry":{"type":"Point","coordinates":[-0.114771695980871,51.5851553463128]},"properties":{"LicenceArea":"Eastern Power Networks (EPN)","SubstationName":"Hornsey Grid 33kV","Voltage":33}},{"type":"Feature","geometry":{"type":"Point","coordinates":[-0.114771695980871,51.5851553463128]},"properties":{"LicenceArea":"Eastern Power Networks (EPN)","SubstationName":"Hornsey Grid 33kV","Voltage":33}},{"type":"Feature","geometry":{"type":"Point","coordinates":[-0.183060686204365,52.3407372864036]},"properties":{"LicenceArea":"Eastern Power Networks (EPN)","SubstationName":"Huntingdon Grid 33kV","Voltage":33}},{"type":"Feature","geometry":{"type":"Point","coordinates":[1.50949530315185,52.438021143301]},"properties":{"LicenceArea":"Eastern Power Networks (EPN)","SubstationName":"Ilketshall Grid 33kV","Voltage":33}},{"type":"Feature","geometry":{"type":"Point","coordinates":[-0.88227449772753,51.7517773136147]},"properties":{"LicenceArea":"Eastern Power Networks (EPN)","SubstationName":"Ilmer Grid 33kV","Voltage":33}},{"type":"Feature","geometry":{"type":"Point","coordinates":[-0.88227449772753,51.7517773136147]},"properties":{"LicenceArea":"Eastern Power Networks (EPN)","SubstationName":"Ilmer Grid 33kV","Voltage":33}},{"type":"Feature","geometry":{"type":"Point","coordinates":[-0.88227449772753,51.7517773136147]},"properties":{"LicenceArea":"Eastern Power Networks (EPN)","SubstationName":"Ilmer Grid 33kV","Voltage":33}},{"type":"Feature","geometry":{"type":"Point","coordinates":[1.13613641316806,52.0559562042733]},"properties":{"LicenceArea":"Eastern Power Networks (EPN)","SubstationName":"Ipswich Grid 33kV","Voltage":33}},{"type":"Feature","geometry":{"type":"Point","coordinates":[1.13613641316806,52.0559562042733]},"properties":{"LicenceArea":"Eastern Power Networks (EPN)","SubstationName":"Ipswich Grid 33kV","Voltage":33}},{"type":"Feature","geometry":{"type":"Point","coordinates":[0.399591493869985,52.7576600302301]},"properties":{"LicenceArea":"Eastern Power Networks (EPN)","SubstationName":"Kings Lynn Grid  33kV","Voltage":33}},{"type":"Feature","geometry":{"type":"Point","coordinates":[0.399591493869985,52.7576600302301]},"properties":{"LicenceArea":"Eastern Power Networks (EPN)","SubstationName":"Kings Lynn Grid  33kV","Voltage":33}},{"type":"Feature","geometry":{"type":"Point","coordinates":[0.402921260194627,52.7314538421169]},"properties":{"LicenceArea":"Eastern Power Networks (EPN)","SubstationName":"Kings Lynn South Grid 33kV","Voltage":33}},{"type":"Feature","geometry":{"type":"Point","coordinates":[1.01869819169731,51.9166367025341]},"properties":{"LicenceArea":"Eastern Power Networks (EPN)","SubstationName":"Lawford Grid 33kV","Voltage":33}},{"type":"Feature","geometry":{"type":"Point","coordinates":[1.01869819169731,51.9166367025341]},"properties":{"LicenceArea":"Eastern Power Networks (EPN)","SubstationName":"Lawford Grid 33kV","Voltage":33}},{"type":"Feature","geometry":{"type":"Point","coordinates":[-0.258125250627133,51.5450707591394]},"properties":{"LicenceArea":"Eastern Power Networks (EPN)","SubstationName":"Leicester Rd Grid 33kV","Voltage":33}},{"type":"Feature","geometry":{"type":"Point","coordinates":[-0.263634779607096,52.2080234773207]},"properties":{"LicenceArea":"Eastern Power Networks (EPN)","SubstationName":"Little Barford 33kV","Voltage":33}},{"type":"Feature","geometry":{"type":"Point","coordinates":[-0.263634779607096,52.2080234773207]},"properties":{"LicenceArea":"Eastern Power Networks (EPN)","SubstationName":"Little Barford 33kV","Voltage":33}},{"type":"Feature","geometry":{"type":"Point","coordinates":[1.73967407554699,52.478918694707]},"properties":{"LicenceArea":"Eastern Power Networks (EPN)","SubstationName":"Lowestoft Grid 33kV","Voltage":33}},{"type":"Feature","geometry":{"type":"Point","coordinates":[-0.425238695984649,51.9077650978683]},"properties":{"LicenceArea":"Eastern Power Networks (EPN)","SubstationName":"Luton North Grid 33kV","Voltage":33}},{"type":"Feature","geometry":{"type":"Point","coordinates":[-0.401147204474172,51.8746745583959]},"properties":{"LicenceArea":"Eastern Power Networks (EPN)","SubstationName":"Luton South Grid 33kV","Voltage":33}},{"type":"Feature","geometry":{"type":"Point","coordinates":[-0.59048547949184,51.7217644104543]},"properties":{"LicenceArea":"Eastern Power Networks (EPN)","SubstationName":"Lye Green 33kV","Voltage":33}},{"type":"Feature","geometry":{"type":"Point","coordinates":[0.659107740468937,51.7253682121654]},"properties":{"LicenceArea":"Eastern Power Networks (EPN)","SubstationName":"Maldon Grid 33kV","Voltage":33}},{"type":"Feature","geometry":{"type":"Point","coordinates":[0.659107740468937,51.7253682121654]},"properties":{"LicenceArea":"Eastern Power Networks (EPN)","SubstationName":"Maldon Grid 33kV","Voltage":33}},{"type":"Feature","geometry":{"type":"Point","coordinates":[0.0748765202284335,52.5482388436914]},"properties":{"LicenceArea":"Eastern Power Networks (EPN)","SubstationName":"March Grid 33kV","Voltage":33}},{"type":"Feature","geometry":{"type":"Point","coordinates":[0.0748765202284335,52.5482388436914]},"properties":{"LicenceArea":"Eastern Power Networks (EPN)","SubstationName":"March Grid 33kV","Voltage":33}},{"type":"Feature","geometry":{"type":"Point","coordinates":[-0.534225220770837,52.0786249846535]},"properties":{"LicenceArea":"Eastern Power Networks (EPN)","SubstationName":"Marston Rd Grid 33kV","Voltage":33}},{"type":"Feature","geometry":{"type":"Point","coordinates":[-0.534225220770837,52.0786249846535]},"properties":{"LicenceArea":"Eastern Power Networks (EPN)","SubstationName":"Marston Rd Grid 33kV","Voltage":33}},{"type":"Feature","geometry":{"type":"Point","coordinates":[-0.00399539415023235,52.0749472610913]},"properties":{"LicenceArea":"Eastern Power Networks (EPN)","SubstationName":"Melbourn Grid 33kV","Voltage":33}},{"type":"Feature","geometry":{"type":"Point","coordinates":[0.484526289220705,51.5945902916807]},"properties":{"LicenceArea":"Eastern Power Networks (EPN)","SubstationName":"Nevendon Grid 33kV","Voltage":33}},{"type":"Feature","geometry":{"type":"Point","coordinates":[-0.113057905611158,51.6160617212447]},"properties":{"LicenceArea":"Eastern Power Networks (EPN)","SubstationName":"Palmers Grn Grid 33kV","Voltage":33}},{"type":"Feature","geometry":{"type":"Point","coordinates":[-0.113057905611158,51.6160617212447]},"properties":{"LicenceArea":"Eastern Power Networks (EPN)","SubstationName":"Palmers Grn Grid 33kV","Voltage":33}},{"type":"Feature","geometry":{"type":"Point","coordinates":[-0.113057905611158,51.6160617212447]},"properties":{"LicenceArea":"Eastern Power Networks (EPN)","SubstationName":"Palmers Grn Grid 33kV","Voltage":33}},{"type":"Feature","geometry":{"type":"Point","coordinates":[-0.113057905611158,51.6160617212447]},"properties":{"LicenceArea":"Eastern Power Networks (EPN)","SubstationName":"Palmers Grn Grid 33kV","Voltage":33}},{"type":"Feature","geometry":{"type":"Point","coordinates":[-0.243114218957207,52.5677892580101]},"properties":{"LicenceArea":"Eastern Power Networks (EPN)","SubstationName":"Peterborough Central 33kV","Voltage":33}},{"type":"Feature","geometry":{"type":"Point","coordinates":[-0.483363443132631,51.773302564836]},"properties":{"LicenceArea":"Eastern Power Networks (EPN)","SubstationName":"Piccotts End Grid 33kV","Voltage":33}},{"type":"Feature","geometry":{"type":"Point","coordinates":[0.261893054480452,51.4785511205189]},"properties":{"LicenceArea":"Eastern Power Networks (EPN)","SubstationName":"Purfleet Grid 33kV","Voltage":33}},{"type":"Feature","geometry":{"type":"Point","coordinates":[0.596170529668436,51.5874963755115]},"properties":{"LicenceArea":"Eastern Power Networks (EPN)","SubstationName":"Rayleigh Local 33kV","Voltage":33}},{"type":"Feature","geometry":{"type":"Point","coordinates":[0.596170529668436,51.5874963755115]},"properties":{"LicenceArea":"Eastern Power Networks (EPN)","SubstationName":"Rayleigh Local 33kV","Voltage":33}},{"type":"Feature","geometry":{"type":"Point","coordinates":[0.596170529668436,51.5874963755115]},"properties":{"LicenceArea":"Eastern Power Networks (EPN)","SubstationName":"Rayleigh Local 33kV","Voltage":33}},{"type":"Feature","geometry":{"type":"Point","coordinates":[1.15120280997115,52.7731302289295]},"properties":{"LicenceArea":"Eastern Power Networks (EPN)","SubstationName":"Sall Grid 33kV","Voltage":33}},{"type":"Feature","geometry":{"type":"Point","coordinates":[0.455072970236401,51.5078498404139]},"properties":{"LicenceArea":"Eastern Power Networks (EPN)","SubstationName":"Shell Grid 33kV","Voltage":33}},{"type":"Feature","geometry":{"type":"Point","coordinates":[0.455072970236401,51.5078498404139]},"properties":{"LicenceArea":"Eastern Power Networks (EPN)","SubstationName":"Shell Grid 33kV","Voltage":33}},{"type":"Feature","geometry":{"type":"Point","coordinates":[0.455072970236401,51.5078498404139]},"properties":{"LicenceArea":"Eastern Power Networks (EPN)","SubstationName":"Shell Grid 33kV","Voltage":33}},{"type":"Feature","geometry":{"type":"Point","coordinates":[0.359262397298094,51.640432262506]},"properties":{"LicenceArea":"Eastern Power Networks (EPN)","SubstationName":"Shenfield Grid 33kV","Voltage":33}},{"type":"Feature","geometry":{"type":"Point","coordinates":[0.359262397298094,51.640432262506]},"properties":{"LicenceArea":"Eastern Power Networks (EPN)","SubstationName":"Shenfield Grid 33kV","Voltage":33}},{"type":"Feature","geometry":{"type":"Point","coordinates":[0.564986972935399,51.5459852602734]},"properties":{"LicenceArea":"Eastern Power Networks (EPN)","SubstationName":"South Benfleet Grid 33kV","Voltage":33}},{"type":"Feature","geometry":{"type":"Point","coordinates":[0.564986972935399,51.5459852602734]},"properties":{"LicenceArea":"Eastern Power Networks (EPN)","SubstationName":"South Benfleet Grid 33kV","Voltage":33}},{"type":"Feature","geometry":{"type":"Point","coordinates":[0.564986972935399,51.5459852602734]},"properties":{"LicenceArea":"Eastern Power Networks (EPN)","SubstationName":"South Benfleet Grid 33kV","Voltage":33}},{"type":"Feature","geometry":{"type":"Point","coordinates":[0.70427090970899,51.5419297609392]},"properties":{"LicenceArea":"Eastern Power Networks (EPN)","SubstationName":"Southend Grid 33kV","Voltage":33}},{"type":"Feature","geometry":{"type":"Point","coordinates":[0.70427090970899,51.5419297609392]},"properties":{"LicenceArea":"Eastern Power Networks (EPN)","SubstationName":"Southend Grid 33kV","Voltage":33}},{"type":"Feature","geometry":{"type":"Point","coordinates":[0.70427090970899,51.5419297609392]},"properties":{"LicenceArea":"Eastern Power Networks (EPN)","SubstationName":"Southend Grid 33kV","Voltage":33}},{"type":"Feature","geometry":{"type":"Point","coordinates":[-0.312481421021654,51.6097459425312]},"properties":{"LicenceArea":"Eastern Power Networks (EPN)","SubstationName":"Stanmore Grid 33kV","Voltage":33}},{"type":"Feature","geometry":{"type":"Point","coordinates":[-0.223517716803999,51.9050728601295]},"properties":{"LicenceArea":"Eastern Power Networks (EPN)","SubstationName":"Stevenage Grid 33kV","Voltage":33}},{"type":"Feature","geometry":{"type":"Point","coordinates":[-0.498023771548751,51.9296757555707]},"properties":{"LicenceArea":"Eastern Power Networks (EPN)","SubstationName":"Sundon 33kV","Voltage":33}},{"type":"Feature","geometry":{"type":"Point","coordinates":[-0.498023771548751,51.9296757555707]},"properties":{"LicenceArea":"Eastern Power Networks (EPN)","SubstationName":"Sundon 33kV","Voltage":33}},{"type":"Feature","geometry":{"type":"Point","coordinates":[-0.498023771548751,51.9296757555707]},"properties":{"LicenceArea":"Eastern Power Networks (EPN)","SubstationName":"Sundon 33kV","Voltage":33}},{"type":"Feature","geometry":{"type":"Point","coordinates":[-0.498023771548751,51.9296757555707]},"properties":{"LicenceArea":"Eastern Power Networks (EPN)","SubstationName":"Sundon 33kV","Voltage":33}},{"type":"Feature","geometry":{"type":"Point","coordinates":[0.701819023078985,52.6427111993623]},"properties":{"LicenceArea":"Eastern Power Networks (EPN)","SubstationName":"Swaffham Grid 33kV","Voltage":33}},{"type":"Feature","geometry":{"type":"Point","coordinates":[0.360450203279172,51.9655875581503]},"properties":{"LicenceArea":"Eastern Power Networks (EPN)","SubstationName":"Thaxted Grid 33kV","Voltage":33}},{"type":"Feature","geometry":{"type":"Point","coordinates":[0.360450203279172,51.9655875581503]},"properties":{"LicenceArea":"Eastern Power Networks (EPN)","SubstationName":"Thaxted Grid 33kV","Voltage":33}},{"type":"Feature","geometry":{"type":"Point","coordinates":[0.360450203279172,51.9655875581503]},"properties":{"LicenceArea":"Eastern Power Networks (EPN)","SubstationName":"Thaxted Grid 33kV","Voltage":33}},{"type":"Feature","geometry":{"type":"Point","coordinates":[0.738889541490959,52.3862819334029]},"properties":{"LicenceArea":"Eastern Power Networks (EPN)","SubstationName":"Thetford Grid 33kV","Voltage":33}},{"type":"Feature","geometry":{"type":"Point","coordinates":[1.32092513603909,52.6223410122001]},"properties":{"LicenceArea":"Eastern Power Networks (EPN)","SubstationName":"Thorpe Grid 33kV","Voltage":33}},{"type":"Feature","geometry":{"type":"Point","coordinates":[1.32092513603909,52.6223410122001]},"properties":{"LicenceArea":"Eastern Power Networks (EPN)","SubstationName":"Thorpe Grid 33kV","Voltage":33}},{"type":"Feature","geometry":{"type":"Point","coordinates":[1.32092513603909,52.6223410122001]},"properties":{"LicenceArea":"Eastern Power Networks (EPN)","SubstationName":"Thorpe Grid 33kV","Voltage":33}},{"type":"Feature","geometry":{"type":"Point","coordinates":[0.380567538696008,51.4617131255402]},"properties":{"LicenceArea":"Eastern Power Networks (EPN)","SubstationName":"Tilbury Compact Grid 33kV","Voltage":33}},{"type":"Feature","geometry":{"type":"Point","coordinates":[-0.0768794953922602,51.5834614195586]},"properties":{"LicenceArea":"Eastern Power Networks (EPN)","SubstationName":"Tottenham Grid 33kV","Voltage":33}},{"type":"Feature","geometry":{"type":"Point","coordinates":[-0.209693644579836,51.7883364899696]},"properties":{"LicenceArea":"Eastern Power Networks (EPN)","SubstationName":"Welwyn Grid 33kV","Voltage":33}},{"type":"Feature","geometry":{"type":"Point","coordinates":[-0.490245258870721,51.9863486231079]},"properties":{"LicenceArea":"Eastern Power Networks (EPN)","SubstationName":"Westoning Grid 33kV","Voltage":33}},{"type":"Feature","geometry":{"type":"Point","coordinates":[1.36753668530461,52.1874930946002]},"properties":{"LicenceArea":"Eastern Power Networks (EPN)","SubstationName":"Wickham Market Grid 33kV","Voltage":33}},{"type":"Feature","geometry":{"type":"Point","coordinates":[-0.246809514039809,51.9288728355622]},"properties":{"LicenceArea":"Eastern Power Networks (EPN)","SubstationName":"Wymondley Grid 33kV","Voltage":33}},{"type":"Feature","geometry":{"type":"Point","coordinates":[-0.246809514039809,51.9288728355622]},"properties":{"LicenceArea":"Eastern Power Networks (EPN)","SubstationName":"Wymondley Grid 33kV","Voltage":33}},{"type":"Feature","geometry":{"type":"Point","coordinates":[-0.246809514039809,51.9288728355622]},"properties":{"LicenceArea":"Eastern Power Networks (EPN)","SubstationName":"Wymondley Grid 33kV","Voltage":33}},{"type":"Feature","geometry":{"type":"Point","coordinates":[0.886519235432711,51.8444446070525]},"properties":{"LicenceArea":"Eastern Power Networks (EPN)","SubstationName":"Abberton Grid 33kV","Voltage":33}},{"type":"Feature","geometry":{"type":"Point","coordinates":[0.129295504611532,52.2360705090683]},"properties":{"LicenceArea":"Eastern Power Networks (EPN)","SubstationName":"Arbury Grid 33kV","Voltage":33}},{"type":"Feature","geometry":{"type":"Point","coordinates":[0.129295504611532,52.2360705090683]},"properties":{"LicenceArea":"Eastern Power Networks (EPN)","SubstationName":"Arbury Grid 33kV","Voltage":33}},{"type":"Feature","geometry":{"type":"Point","coordinates":[-0.482627126732345,52.1267409229522]},"properties":{"LicenceArea":"Eastern Power Networks (EPN)","SubstationName":"Austin Canons Grid 33kV","Voltage":33}},{"type":"Feature","geometry":{"type":"Point","coordinates":[-0.482627126732345,52.1267409229522]},"properties":{"LicenceArea":"Eastern Power Networks (EPN)","SubstationName":"Austin Canons Grid 33kV","Voltage":33}},{"type":"Feature","geometry":{"type":"Point","coordinates":[-0.775132146371567,51.8255730051532]},"properties":{"LicenceArea":"Eastern Power Networks (EPN)","SubstationName":"Aylesbury East Grid 33kV","Voltage":33}},{"type":"Feature","geometry":{"type":"Point","coordinates":[-0.775132146371567,51.8255730051532]},"properties":{"LicenceArea":"Eastern Power Networks (EPN)","SubstationName":"Aylesbury East Grid 33kV","Voltage":33}},{"type":"Feature","geometry":{"type":"Point","coordinates":[-0.211010913182026,51.6611178628291]},"properties":{"LicenceArea":"Eastern Power Networks (EPN)","SubstationName":"Barnet Grid 33kV","Voltage":33}},{"type":"Feature","geometry":{"type":"Point","coordinates":[0.391245704650906,51.5659158377634]},"properties":{"LicenceArea":"Eastern Power Networks (EPN)","SubstationName":"Basildon Grid 33kV","Voltage":33}},{"type":"Feature","geometry":{"type":"Point","coordinates":[0.391245704650906,51.5659158377634]},"properties":{"LicenceArea":"Eastern Power Networks (EPN)","SubstationName":"Basildon Grid 33kV","Voltage":33}},{"type":"Feature","geometry":{"type":"Point","coordinates":[0.605358966326239,52.0685789944063]},"properties":{"LicenceArea":"Eastern Power Networks (EPN)","SubstationName":"Belchamp Grid 33kV","Voltage":33}},{"type":"Feature","geometry":{"type":"Point","coordinates":[0.575489132018182,51.8667690820958]},"properties":{"LicenceArea":"Eastern Power Networks (EPN)","SubstationName":"Braintree Local 33kV","Voltage":33}},{"type":"Feature","geometry":{"type":"Point","coordinates":[0.575489132018182,51.8667690820958]},"properties":{"LicenceArea":"Eastern Power Networks (EPN)","SubstationName":"Braintree Local 33kV","Voltage":33}},{"type":"Feature","geometry":{"type":"Point","coordinates":[-0.0243613028809124,51.6630808320757]},"properties":{"LicenceArea":"Eastern Power Networks (EPN)","SubstationName":"Brimsdown North Grid 33kV","Voltage":33}},{"type":"Feature","geometry":{"type":"Point","coordinates":[0.317253092352746,52.2774898958568]},"properties":{"LicenceArea":"Eastern Power Networks (EPN)","SubstationName":"Burwell Local Grid 33kV","Voltage":33}},{"type":"Feature","geometry":{"type":"Point","coordinates":[0.317253092352746,52.2774898958568]},"properties":{"LicenceArea":"Eastern Power Networks (EPN)","SubstationName":"Burwell Local Grid 33kV","Voltage":33}},{"type":"Feature","geometry":{"type":"Point","coordinates":[-0.382370800818844,51.670976638723]},"properties":{"LicenceArea":"Eastern Power Networks (EPN)","SubstationName":"Bushey Mill Grid 33kV","Voltage":33}},{"type":"Feature","geometry":{"type":"Point","coordinates":[-0.313863401555305,51.7449977816522]},"properties":{"LicenceArea":"Eastern Power Networks (EPN)","SubstationName":"Cell Barnes Grid 33kV","Voltage":33}},{"type":"Feature","geometry":{"type":"Point","coordinates":[1.17939860554406,51.8258780652892]},"properties":{"LicenceArea":"Eastern Power Networks (EPN)","SubstationName":"Clacton Grid 33kV","Voltage":33}},{"type":"Feature","geometry":{"type":"Point","coordinates":[1.16362334640208,52.0355241339362]},"properties":{"LicenceArea":"Eastern Power Networks (EPN)","SubstationName":"Cliff Quay Grid 33kV","Voltage":33}},{"type":"Feature","geometry":{"type":"Point","coordinates":[0.930107723117814,51.8779379244362]},"properties":{"LicenceArea":"Eastern Power Networks (EPN)","SubstationName":"Colchester Grid 33kV","Voltage":33}},{"type":"Feature","geometry":{"type":"Point","coordinates":[0.930107723117814,51.8779379244362]},"properties":{"LicenceArea":"Eastern Power Networks (EPN)","SubstationName":"Colchester Grid 33kV","Voltage":33}},{"type":"Feature","geometry":{"type":"Point","coordinates":[0.504436782449211,51.5179036241218]},"properties":{"LicenceArea":"Eastern Power Networks (EPN)","SubstationName":"Coryton Grid 33kV","Voltage":33}},{"type":"Feature","geometry":{"type":"Point","coordinates":[1.10555613465987,52.3726957140022]},"properties":{"LicenceArea":"Eastern Power Networks (EPN)","SubstationName":"Diss Grid 33kV","Voltage":33}},{"type":"Feature","geometry":{"type":"Point","coordinates":[1.2283936849219,52.6298924830174]},"properties":{"LicenceArea":"Eastern Power Networks (EPN)","SubstationName":"Earlham Grid 33kV","Voltage":33}},{"type":"Feature","geometry":{"type":"Point","coordinates":[1.2283936849219,52.6298924830174]},"properties":{"LicenceArea":"Eastern Power Networks (EPN)","SubstationName":"Earlham Grid 33kV","Voltage":33}},{"type":"Feature","geometry":{"type":"Point","coordinates":[0.1189767440755,51.7076219518458]},"properties":{"LicenceArea":"Eastern Power Networks (EPN)","SubstationName":"Epping Grid 33kV","Voltage":33}},{"type":"Feature","geometry":{"type":"Point","coordinates":[-0.184179998417775,51.6005745884072]},"properties":{"LicenceArea":"Eastern Power Networks (EPN)","SubstationName":"Finchley Grid 33kV","Voltage":33}},{"type":"Feature","geometry":{"type":"Point","coordinates":[0.733630386220976,51.5706943663914]},"properties":{"LicenceArea":"Eastern Power Networks (EPN)","SubstationName":"Fleethall Grid 33kV","Voltage":33}},{"type":"Feature","geometry":{"type":"Point","coordinates":[0.733630386220976,51.5706943663914]},"properties":{"LicenceArea":"Eastern Power Networks (EPN)","SubstationName":"Fleethall Grid 33kV","Voltage":33}},{"type":"Feature","geometry":{"type":"Point","coordinates":[0.190011771658331,52.6607159075881]},"properties":{"LicenceArea":"Eastern Power Networks (EPN)","SubstationName":"Walsoken Grid 33kV","Voltage":33}},{"type":"Feature","geometry":{"type":"Point","coordinates":[0.190011771658331,52.6607159075881]},"properties":{"LicenceArea":"Eastern Power Networks (EPN)","SubstationName":"Walsoken Grid 33kV","Voltage":33}},{"type":"Feature","geometry":{"type":"Point","coordinates":[-0.209693644579836,51.7883364899696]},"properties":{"LicenceArea":"Eastern Power Networks (EPN)","SubstationName":"Welwyn Grid 33kV","Voltage":33}},{"type":"Feature","geometry":{"type":"Point","coordinates":[-0.490245258870721,51.9863486231079]},"properties":{"LicenceArea":"Eastern Power Networks (EPN)","SubstationName":"Westoning Grid 33kV","Voltage":33}},{"type":"Feature","geometry":{"type":"Point","coordinates":[1.36753668530461,52.1874930946002]},"properties":{"LicenceArea":"Eastern Power Networks (EPN)","SubstationName":"Wickham Market Grid 33kV","Voltage":33}},{"type":"Feature","geometry":{"type":"Point","coordinates":[1.36753668530461,52.1874930946002]},"properties":{"LicenceArea":"Eastern Power Networks (EPN)","SubstationName":"Wickham Market Grid 33kV","Voltage":33}},{"type":"Feature","geometry":{"type":"Point","coordinates":[1.36753668530461,52.1874930946002]},"properties":{"LicenceArea":"Eastern Power Networks (EPN)","SubstationName":"Wickham Market Grid 33kV","Voltage":33}},{"type":"Feature","geometry":{"type":"Point","coordinates":[-0.246809514039809,51.9288728355622]},"properties":{"LicenceArea":"Eastern Power Networks (EPN)","SubstationName":"Wymondley Grid 33kV","Voltage":33}},{"type":"Feature","geometry":{"type":"Point","coordinates":[-0.243114218957207,52.5677892580101]},"properties":{"LicenceArea":"Eastern Power Networks (EPN)","SubstationName":"Peterborough Central 33kV","Voltage":33}},{"type":"Feature","geometry":{"type":"Point","coordinates":[-0.243114218957207,52.5677892580101]},"properties":{"LicenceArea":"Eastern Power Networks (EPN)","SubstationName":"Peterborough Central 33kV","Voltage":33}},{"type":"Feature","geometry":{"type":"Point","coordinates":[-0.243114218957207,52.5677892580101]},"properties":{"LicenceArea":"Eastern Power Networks (EPN)","SubstationName":"Peterborough Central 33kV","Voltage":33}},{"type":"Feature","geometry":{"type":"Point","coordinates":[0.261893054480452,51.4785511205189]},"properties":{"LicenceArea":"Eastern Power Networks (EPN)","SubstationName":"Purfleet Grid 33kV","Voltage":33}},{"type":"Feature","geometry":{"type":"Point","coordinates":[0.261893054480452,51.4785511205189]},"properties":{"LicenceArea":"Eastern Power Networks (EPN)","SubstationName":"Purfleet Grid 33kV","Voltage":33}},{"type":"Feature","geometry":{"type":"Point","coordinates":[0.596170529668436,51.5874963755115]},"properties":{"LicenceArea":"Eastern Power Networks (EPN)","SubstationName":"Rayleigh Local 33kV","Voltage":33}},{"type":"Feature","geometry":{"type":"Point","coordinates":[0.00430328440325191,51.7578247127148]},"properties":{"LicenceArea":"Eastern Power Networks (EPN)","SubstationName":"Rye House Grid 33kV","Voltage":33}},{"type":"Feature","geometry":{"type":"Point","coordinates":[1.15120280997115,52.7731302289295]},"properties":{"LicenceArea":"Eastern Power Networks (EPN)","SubstationName":"Sall Grid 33kV","Voltage":33}},{"type":"Feature","geometry":{"type":"Point","coordinates":[1.15120280997115,52.7731302289295]},"properties":{"LicenceArea":"Eastern Power Networks (EPN)","SubstationName":"Sall Grid 33kV","Voltage":33}},{"type":"Feature","geometry":{"type":"Point","coordinates":[1.15120280997115,52.7731302289295]},"properties":{"LicenceArea":"Eastern Power Networks (EPN)","SubstationName":"Sall Grid 33kV","Voltage":33}},{"type":"Feature","geometry":{"type":"Point","coordinates":[0.359262397298094,51.640432262506]},"properties":{"LicenceArea":"Eastern Power Networks (EPN)","SubstationName":"Shenfield Grid 33kV","Voltage":33}},{"type":"Feature","geometry":{"type":"Point","coordinates":[0.564986972935399,51.5459852602734]},"properties":{"LicenceArea":"Eastern Power Networks (EPN)","SubstationName":"South Benfleet Grid 33kV","Voltage":33}},{"type":"Feature","geometry":{"type":"Point","coordinates":[-0.312481421021654,51.6097459425312]},"properties":{"LicenceArea":"Eastern Power Networks (EPN)","SubstationName":"Stanmore Grid 33kV","Voltage":33}},{"type":"Feature","geometry":{"type":"Point","coordinates":[-0.312481421021654,51.6097459425312]},"properties":{"LicenceArea":"Eastern Power Networks (EPN)","SubstationName":"Stanmore Grid 33kV","Voltage":33}},{"type":"Feature","geometry":{"type":"Point","coordinates":[-0.223517716803999,51.9050728601295]},"properties":{"LicenceArea":"Eastern Power Networks (EPN)","SubstationName":"Stevenage Grid 33kV","Voltage":33}},{"type":"Feature","geometry":{"type":"Point","coordinates":[1.01718263923797,52.1711061546669]},"properties":{"LicenceArea":"Eastern Power Networks (EPN)","SubstationName":"Stowmarket Grid 33kV","Voltage":33}},{"type":"Feature","geometry":{"type":"Point","coordinates":[1.01718263923797,52.1711061546669]},"properties":{"LicenceArea":"Eastern Power Networks (EPN)","SubstationName":"Stowmarket Grid 33kV","Voltage":33}},{"type":"Feature","geometry":{"type":"Point","coordinates":[1.01718263923797,52.1711061546669]},"properties":{"LicenceArea":"Eastern Power Networks (EPN)","SubstationName":"Stowmarket Grid 33kV","Voltage":33}},{"type":"Feature","geometry":{"type":"Point","coordinates":[1.01718263923797,52.1711061546669]},"properties":{"LicenceArea":"Eastern Power Networks (EPN)","SubstationName":"Stowmarket Grid 33kV","Voltage":33}},{"type":"Feature","geometry":{"type":"Point","coordinates":[0.701819023078985,52.6427111993623]},"properties":{"LicenceArea":"Eastern Power Networks (EPN)","SubstationName":"Swaffham Grid 33kV","Voltage":33}},{"type":"Feature","geometry":{"type":"Point","coordinates":[0.738889541490959,52.3862819334029]},"properties":{"LicenceArea":"Eastern Power Networks (EPN)","SubstationName":"Thetford Grid 33kV","Voltage":33}},{"type":"Feature","geometry":{"type":"Point","coordinates":[0.738889541490959,52.3862819334029]},"properties":{"LicenceArea":"Eastern Power Networks (EPN)","SubstationName":"Thetford Grid 33kV","Voltage":33}},{"type":"Feature","geometry":{"type":"Point","coordinates":[0.738889541490959,52.3862819334029]},"properties":{"LicenceArea":"Eastern Power Networks (EPN)","SubstationName":"Thetford Grid 33kV","Voltage":33}},{"type":"Feature","geometry":{"type":"Point","coordinates":[1.32092513603909,52.6223410122001]},"properties":{"LicenceArea":"Eastern Power Networks (EPN)","SubstationName":"Thorpe Grid 33kV","Voltage":33}},{"type":"Feature","geometry":{"type":"Point","coordinates":[0.380567538696008,51.4617131255402]},"properties":{"LicenceArea":"Eastern Power Networks (EPN)","SubstationName":"Tilbury Compact Grid 33kV","Voltage":33}},{"type":"Feature","geometry":{"type":"Point","coordinates":[-0.0768794953922602,51.5834614195586]},"properties":{"LicenceArea":"Eastern Power Networks (EPN)","SubstationName":"Tottenham Grid 33kV","Voltage":33}},{"type":"Feature","geometry":{"type":"Point","coordinates":[1.30817283390477,52.6078675543899]},"properties":{"LicenceArea":"Eastern Power Networks (EPN)","SubstationName":"Trowse Grid 33kV","Voltage":33}},{"type":"Feature","geometry":{"type":"Point","coordinates":[1.30817283390477,52.6078675543899]},"properties":{"LicenceArea":"Eastern Power Networks (EPN)","SubstationName":"Trowse Grid 33kV","Voltage":33}},{"type":"Feature","geometry":{"type":"Point","coordinates":[1.30817283390477,52.6078675543899]},"properties":{"LicenceArea":"Eastern Power Networks (EPN)","SubstationName":"Trowse Grid 33kV","Voltage":33}},{"type":"Feature","geometry":{"type":"Point","coordinates":[1.30817283390477,52.6078675543899]},"properties":{"LicenceArea":"Eastern Power Networks (EPN)","SubstationName":"Trowse Grid 33kV","Voltage":33}},{"type":"Feature","geometry":{"type":"Point","coordinates":[0.733630386220976,51.5706943663914]},"properties":{"LicenceArea":"Eastern Power Networks (EPN)","SubstationName":"Fleethall Grid 33kV","Voltage":33}},{"type":"Feature","geometry":{"type":"Point","coordinates":[1.70510092036558,52.5668164479376]},"properties":{"LicenceArea":"Eastern Power Networks (EPN)","SubstationName":"Gorleston Grid 33kV","Voltage":33}},{"type":"Feature","geometry":{"type":"Point","coordinates":[1.70510092036558,52.5668164479376]},"properties":{"LicenceArea":"Eastern Power Networks (EPN)","SubstationName":"Gorleston Grid 33kV","Voltage":33}},{"type":"Feature","geometry":{"type":"Point","coordinates":[1.50991343666374,52.3564655534]},"properties":{"LicenceArea":"Eastern Power Networks (EPN)","SubstationName":"Halesworth Grid 33kV","Voltage":33}},{"type":"Feature","geometry":{"type":"Point","coordinates":[-0.366642550258783,51.5802894088374]},"properties":{"LicenceArea":"Eastern Power Networks (EPN)","SubstationName":"Harrow North Grid 33kV","Voltage":33}},{"type":"Feature","geometry":{"type":"Point","coordinates":[-0.382678140160238,51.6164440148085]},"properties":{"LicenceArea":"Eastern Power Networks (EPN)","SubstationName":"Hatch End Grid 33kV","Voltage":33}},{"type":"Feature","geometry":{"type":"Point","coordinates":[-0.382678140160238,51.6164440148085]},"properties":{"LicenceArea":"Eastern Power Networks (EPN)","SubstationName":"Hatch End Grid 33kV","Voltage":33}},{"type":"Feature","geometry":{"type":"Point","coordinates":[-0.23881421148122,51.7368023047392]},"properties":{"LicenceArea":"Eastern Power Networks (EPN)","SubstationName":"Hatfield Grid 33kV","Voltage":33}},{"type":"Feature","geometry":{"type":"Point","coordinates":[-0.23881421148122,51.7368023047392]},"properties":{"LicenceArea":"Eastern Power Networks (EPN)","SubstationName":"Hatfield Grid 33kV","Voltage":33}},{"type":"Feature","geometry":{"type":"Point","coordinates":[0.826556488347647,52.8294239895079]},"properties":{"LicenceArea":"Eastern Power Networks (EPN)","SubstationName":"Hempton Grid 33kV","Voltage":33}},{"type":"Feature","geometry":{"type":"Point","coordinates":[-0.257634242351455,51.5945300965162]},"properties":{"LicenceArea":"Eastern Power Networks (EPN)","SubstationName":"Hendon Grid 33kV","Voltage":33}},{"type":"Feature","geometry":{"type":"Point","coordinates":[-0.257634242351455,51.5945300965162]},"properties":{"LicenceArea":"Eastern Power Networks (EPN)","SubstationName":"Hendon Grid 33kV","Voltage":33}},{"type":"Feature","geometry":{"type":"Point","coordinates":[0.102236618763704,52.2461229481053]},"properties":{"LicenceArea":"Eastern Power Networks (EPN)","SubstationName":"Histon Grid 33kV","Voltage":33}},{"type":"Feature","geometry":{"type":"Point","coordinates":[0.102236618763704,52.2461229481053]},"properties":{"LicenceArea":"Eastern Power Networks (EPN)","SubstationName":"Histon Grid 33kV","Voltage":33}},{"type":"Feature","geometry":{"type":"Point","coordinates":[-0.4077801463388,51.6462181285799]},"properties":{"LicenceArea":"Eastern Power Networks (EPN)","SubstationName":"Holywell Grid 33kV","Voltage":33}},{"type":"Feature","geometry":{"type":"Point","coordinates":[-0.4077801463388,51.6462181285799]},"properties":{"LicenceArea":"Eastern Power Networks (EPN)","SubstationName":"Holywell Grid 33kV","Voltage":33}},{"type":"Feature","geometry":{"type":"Point","coordinates":[-0.114771695980871,51.5851553463128]},"properties":{"LicenceArea":"Eastern Power Networks (EPN)","SubstationName":"Hornsey Grid 33kV","Voltage":33}},{"type":"Feature","geometry":{"type":"Point","coordinates":[-0.513540473304274,51.8962802853099]},"properties":{"LicenceArea":"Eastern Power Networks (EPN)","SubstationName":"Houghton Regis Grid 33kV","Voltage":33}},{"type":"Feature","geometry":{"type":"Point","coordinates":[-0.513540473304274,51.8962802853099]},"properties":{"LicenceArea":"Eastern Power Networks (EPN)","SubstationName":"Houghton Regis Grid 33kV","Voltage":33}},{"type":"Feature","geometry":{"type":"Point","coordinates":[-0.183060686204365,52.3407372864036]},"properties":{"LicenceArea":"Eastern Power Networks (EPN)","SubstationName":"Huntingdon Grid 33kV","Voltage":33}},{"type":"Feature","geometry":{"type":"Point","coordinates":[1.50949530315185,52.438021143301]},"properties":{"LicenceArea":"Eastern Power Networks (EPN)","SubstationName":"Ilketshall Grid 33kV","Voltage":33}},{"type":"Feature","geometry":{"type":"Point","coordinates":[1.50949530315185,52.438021143301]},"properties":{"LicenceArea":"Eastern Power Networks (EPN)","SubstationName":"Ilketshall Grid 33kV","Voltage":33}},{"type":"Feature","geometry":{"type":"Point","coordinates":[1.13613641316806,52.0559562042733]},"properties":{"LicenceArea":"Eastern Power Networks (EPN)","SubstationName":"Ipswich Grid 33kV","Voltage":33}},{"type":"Feature","geometry":{"type":"Point","coordinates":[0.399591493869985,52.7576600302301]},"properties":{"LicenceArea":"Eastern Power Networks (EPN)","SubstationName":"Kings Lynn Grid  33kV","Voltage":33}},{"type":"Feature","geometry":{"type":"Point","coordinates":[0.402921260194627,52.7314538421169]},"properties":{"LicenceArea":"Eastern Power Networks (EPN)","SubstationName":"Kings Lynn South Grid 33kV","Voltage":33}},{"type":"Feature","geometry":{"type":"Point","coordinates":[1.01869819169731,51.9166367025341]},"properties":{"LicenceArea":"Eastern Power Networks (EPN)","SubstationName":"Lawford Grid 33kV","Voltage":33}},{"type":"Feature","geometry":{"type":"Point","coordinates":[1.01869819169731,51.9166367025341]},"properties":{"LicenceArea":"Eastern Power Networks (EPN)","SubstationName":"Lawford Grid 33kV","Voltage":33}},{"type":"Feature","geometry":{"type":"Point","coordinates":[-0.258125250627133,51.5450707591394]},"properties":{"LicenceArea":"Eastern Power Networks (EPN)","SubstationName":"Leicester Rd Grid 33kV","Voltage":33}},{"type":"Feature","geometry":{"type":"Point","coordinates":[-0.20069463512711,51.9810578589643]},"properties":{"LicenceArea":"Eastern Power Networks (EPN)","SubstationName":"Letchworth Grid 33kV","Voltage":33}},{"type":"Feature","geometry":{"type":"Point","coordinates":[-0.20069463512711,51.9810578589643]},"properties":{"LicenceArea":"Eastern Power Networks (EPN)","SubstationName":"Letchworth Grid 33kV","Voltage":33}},{"type":"Feature","geometry":{"type":"Point","coordinates":[-0.263634779607096,52.2080234773207]},"properties":{"LicenceArea":"Eastern Power Networks (EPN)","SubstationName":"Little Barford 33kV","Voltage":33}},{"type":"Feature","geometry":{"type":"Point","coordinates":[1.73967407554699,52.478918694707]},"properties":{"LicenceArea":"Eastern Power Networks (EPN)","SubstationName":"Lowestoft Grid 33kV","Voltage":33}},{"type":"Feature","geometry":{"type":"Point","coordinates":[-0.425238695984649,51.9077650978683]},"properties":{"LicenceArea":"Eastern Power Networks (EPN)","SubstationName":"Luton North Grid 33kV","Voltage":33}},{"type":"Feature","geometry":{"type":"Point","coordinates":[-0.425238695984649,51.9077650978683]},"properties":{"LicenceArea":"Eastern Power Networks (EPN)","SubstationName":"Luton North Grid 33kV","Voltage":33}},{"type":"Feature","geometry":{"type":"Point","coordinates":[-0.401147204474172,51.8746745583959]},"properties":{"LicenceArea":"Eastern Power Networks (EPN)","SubstationName":"Luton South Grid 33kV","Voltage":33}},{"type":"Feature","geometry":{"type":"Point","coordinates":[-0.59048547949184,51.7217644104543]},"properties":{"LicenceArea":"Eastern Power Networks (EPN)","SubstationName":"Lye Green 33kV","Voltage":33}},{"type":"Feature","geometry":{"type":"Point","coordinates":[-0.59048547949184,51.7217644104543]},"properties":{"LicenceArea":"Eastern Power Networks (EPN)","SubstationName":"Lye Green 33kV","Voltage":33}},{"type":"Feature","geometry":{"type":"Point","coordinates":[-0.59048547949184,51.7217644104543]},"properties":{"LicenceArea":"Eastern Power Networks (EPN)","SubstationName":"Lye Green 33kV","Voltage":33}},{"type":"Feature","geometry":{"type":"Point","coordinates":[0.659107740468937,51.7253682121654]},"properties":{"LicenceArea":"Eastern Power Networks (EPN)","SubstationName":"Maldon Grid 33kV","Voltage":33}},{"type":"Feature","geometry":{"type":"Point","coordinates":[-0.534225220770837,52.0786249846535]},"properties":{"LicenceArea":"Eastern Power Networks (EPN)","SubstationName":"Marston Rd Grid 33kV","Voltage":33}},{"type":"Feature","geometry":{"type":"Point","coordinates":[-0.534225220770837,52.0786249846535]},"properties":{"LicenceArea":"Eastern Power Networks (EPN)","SubstationName":"Marston Rd Grid 33kV","Voltage":33}},{"type":"Feature","geometry":{"type":"Point","coordinates":[-0.00399539415023235,52.0749472610913]},"properties":{"LicenceArea":"Eastern Power Networks (EPN)","SubstationName":"Melbourn Grid 33kV","Voltage":33}},{"type":"Feature","geometry":{"type":"Point","coordinates":[-0.00399539415023235,52.0749472610913]},"properties":{"LicenceArea":"Eastern Power Networks (EPN)","SubstationName":"Melbourn Grid 33kV","Voltage":33}},{"type":"Feature","geometry":{"type":"Point","coordinates":[0.886519235432711,51.8444446070525]},"properties":{"LicenceArea":"Eastern Power Networks (EPN)","SubstationName":"Abberton Grid 33kV","Voltage":33}},{"type":"Feature","geometry":{"type":"Point","coordinates":[0.886519235432711,51.8444446070525]},"properties":{"LicenceArea":"Eastern Power Networks (EPN)","SubstationName":"Abberton Grid 33kV","Voltage":33}},{"type":"Feature","geometry":{"type":"Point","coordinates":[-0.482627126732345,52.1267409229522]},"properties":{"LicenceArea":"Eastern Power Networks (EPN)","SubstationName":"Austin Canons Grid 33kV","Voltage":33}},{"type":"Feature","geometry":{"type":"Point","coordinates":[-0.775132146371567,51.8255730051532]},"properties":{"LicenceArea":"Eastern Power Networks (EPN)","SubstationName":"Aylesbury East Grid 33kV","Voltage":33}},{"type":"Feature","geometry":{"type":"Point","coordinates":[-0.775132146371567,51.8255730051532]},"properties":{"LicenceArea":"Eastern Power Networks (EPN)","SubstationName":"Aylesbury East Grid 33kV","Voltage":33}},{"type":"Feature","geometry":{"type":"Point","coordinates":[-0.211010913182026,51.6611178628291]},"properties":{"LicenceArea":"Eastern Power Networks (EPN)","SubstationName":"Barnet Grid 33kV","Voltage":33}},{"type":"Feature","geometry":{"type":"Point","coordinates":[0.391245704650906,51.5659158377634]},"properties":{"LicenceArea":"Eastern Power Networks (EPN)","SubstationName":"Basildon Grid 33kV","Voltage":33}},{"type":"Feature","geometry":{"type":"Point","coordinates":[0.605358966326239,52.0685789944063]},"properties":{"LicenceArea":"Eastern Power Networks (EPN)","SubstationName":"Belchamp Grid 33kV","Voltage":33}},{"type":"Feature","geometry":{"type":"Point","coordinates":[0.605358966326239,52.0685789944063]},"properties":{"LicenceArea":"Eastern Power Networks (EPN)","SubstationName":"Belchamp Grid 33kV","Voltage":33}},{"type":"Feature","geometry":{"type":"Point","coordinates":[0.141840215127366,51.8782623044817]},"properties":{"LicenceArea":"Eastern Power Networks (EPN)","SubstationName":"Bishops Stortford Grid 33kV","Voltage":33}},{"type":"Feature","geometry":{"type":"Point","coordinates":[0.141840215127366,51.8782623044817]},"properties":{"LicenceArea":"Eastern Power Networks (EPN)","SubstationName":"Bishops Stortford Grid 33kV","Voltage":33}},{"type":"Feature","geometry":{"type":"Point","coordinates":[0.141840215127366,51.8782623044817]},"properties":{"LicenceArea":"Eastern Power Networks (EPN)","SubstationName":"Bishops Stortford Grid 33kV","Voltage":33}},{"type":"Feature","geometry":{"type":"Point","coordinates":[0.317253092352746,52.2774898958568]},"properties":{"LicenceArea":"Eastern Power Networks (EPN)","SubstationName":"Burwell Local Grid 33kV","Voltage":33}},{"type":"Feature","geometry":{"type":"Point","coordinates":[0.722979910939776,52.2399236387066]},"properties":{"LicenceArea":"Eastern Power Networks (EPN)","SubstationName":"Bury Grid 33kV","Voltage":33}},{"type":"Feature","geometry":{"type":"Point","coordinates":[-0.382370800818844,51.670976638723]},"properties":{"LicenceArea":"Eastern Power Networks (EPN)","SubstationName":"Bushey Mill Grid 33kV","Voltage":33}},{"type":"Feature","geometry":{"type":"Point","coordinates":[-0.382370800818844,51.670976638723]},"properties":{"LicenceArea":"Eastern Power Networks (EPN)","SubstationName":"Bushey Mill Grid 33kV","Voltage":33}},{"type":"Feature","geometry":{"type":"Point","coordinates":[0.518499417006754,51.716047848483]},"properties":{"LicenceArea":"Eastern Power Networks (EPN)","SubstationName":"Chelmsford East Grid 33kV","Voltage":33}},{"type":"Feature","geometry":{"type":"Point","coordinates":[0.518499417006754,51.716047848483]},"properties":{"LicenceArea":"Eastern Power Networks (EPN)","SubstationName":"Chelmsford East Grid 33kV","Voltage":33}},{"type":"Feature","geometry":{"type":"Point","coordinates":[1.17939860554406,51.8258780652892]},"properties":{"LicenceArea":"Eastern Power Networks (EPN)","SubstationName":"Clacton Grid 33kV","Voltage":33}},{"type":"Feature","geometry":{"type":"Point","coordinates":[1.17939860554406,51.8258780652892]},"properties":{"LicenceArea":"Eastern Power Networks (EPN)","SubstationName":"Clacton Grid 33kV","Voltage":33}},{"type":"Feature","geometry":{"type":"Point","coordinates":[1.17939860554406,51.8258780652892]},"properties":{"LicenceArea":"Eastern Power Networks (EPN)","SubstationName":"Clacton Grid 33kV","Voltage":33}},{"type":"Feature","geometry":{"type":"Point","coordinates":[1.16362334640208,52.0355241339362]},"properties":{"LicenceArea":"Eastern Power Networks (EPN)","SubstationName":"Cliff Quay Grid 33kV","Voltage":33}},{"type":"Feature","geometry":{"type":"Point","coordinates":[0.504436782449211,51.5179036241218]},"properties":{"LicenceArea":"Eastern Power Networks (EPN)","SubstationName":"Coryton Grid 33kV","Voltage":33}},{"type":"Feature","geometry":{"type":"Point","coordinates":[0.504436782449211,51.5179036241218]},"properties":{"LicenceArea":"Eastern Power Networks (EPN)","SubstationName":"Coryton Grid 33kV","Voltage":33}},{"type":"Feature","geometry":{"type":"Point","coordinates":[0.159163255035062,51.5690138597556]},"properties":{"LicenceArea":"Eastern Power Networks (EPN)","SubstationName":"Crowlands Grid 33kV","Voltage":33}},{"type":"Feature","geometry":{"type":"Point","coordinates":[0.159163255035062,51.5690138597556]},"properties":{"LicenceArea":"Eastern Power Networks (EPN)","SubstationName":"Crowlands Grid 33kV","Voltage":33}},{"type":"Feature","geometry":{"type":"Point","coordinates":[1.10555613465987,52.3726957140022]},"properties":{"LicenceArea":"Eastern Power Networks (EPN)","SubstationName":"Diss Grid 33kV","Voltage":33}},{"type":"Feature","geometry":{"type":"Point","coordinates":[1.10555613465987,52.3726957140022]},"properties":{"LicenceArea":"Eastern Power Networks (EPN)","SubstationName":"Diss Grid 33kV","Voltage":33}},{"type":"Feature","geometry":{"type":"Point","coordinates":[1.2283936849219,52.6298924830174]},"properties":{"LicenceArea":"Eastern Power Networks (EPN)","SubstationName":"Earlham Grid 33kV","Voltage":33}},{"type":"Feature","geometry":{"type":"Point","coordinates":[0.1189767440755,51.7076219518458]},"properties":{"LicenceArea":"Eastern Power Networks (EPN)","SubstationName":"Epping Grid 33kV","Voltage":33}},{"type":"Feature","geometry":{"type":"Point","coordinates":[0.1189767440755,51.7076219518458]},"properties":{"LicenceArea":"Eastern Power Networks (EPN)","SubstationName":"Epping Grid 33kV","Voltage":33}},{"type":"Feature","geometry":{"type":"Point","coordinates":[-0.184179998417775,51.6005745884072]},"properties":{"LicenceArea":"Eastern Power Networks (EPN)","SubstationName":"Finchley Grid 33kV","Voltage":33}},{"type":"Feature","geometry":{"type":"Point","coordinates":[-0.184179998417775,51.6005745884072]},"properties":{"LicenceArea":"Eastern Power Networks (EPN)","SubstationName":"Finchley Grid 33kV","Voltage":33}}]}